stop_id,stop_code,stop_name,stop_desc,stop_lat,stop_lon,zone_id,stop_url,location_type,parent_station,stop_timezone,wheelchair_boarding
1,,Ul. 13. jula (B),,42.446057,19.254951,,,,,,
2,,Ul. II Crnogorskog bataljona (B),,42.455609,19.26498,,,,,,
3,,Trg Golootočkih žrtava (A),,42.432771,19.268173,,,,,,
4,,OŠ Pavle Rovinski (A),,42.42722862,19.27556103,,,,,,
5,,Kozaračka (B),,42.424957,19.272729,,,,,,
6,,Spomenik (A),,42.44845138,19.28898945,,,,,,
7,,Skopska I (A),,42.4459,19.282506,,,,,,
8,,Savin most (A),,42.447191,19.285146,,,,,,
9,,Donja Gorica II (A),,42.423989,19.218426,,,,,,
10,,Gradski stadion (B),,42.443523,19.26345,,,,,,
11,,Pozorište (A),,42.44271848,19.26066935,,,,,,
12,,Medicinska škola (A),,42.436883,19.249407,,,,,,
13,,Orjenska III (A),,42.457055,19.293815,,,,,,
14,,Capital plaza III (A),,42.43934163,19.2402792,,,,,,
15,,Orjenska IV (A),,42.458693,19.295913,,,,,,
17,,Franca Rozmana I (B),,42.453472,19.287732,,,,,,
18,,Gornja Gorica III (B),,42.435601,19.220817,,,,,,
19,,Stanica prve pomoći (A),,42.444877,19.261695,,,,,,
20,,Ul. II Crnogorskog bataljona (A),,42.455438,19.264891,,,,,,
21,,Ul. Nikole Tesle I (A),,42.458118,19.269394,,,,,,
22,,Zelenika (A),,42.412877,19.247207,,,,,,
23,,Orjenska,,42.453329,19.288639,,,,,,
24,,Manastirska II (A),,42.405345,19.241602,,,,,,
25,,PEP garaža (A),,42.421591,19.250132,,,,,,
26,,Donja Gorica - hotel (A),,42.418445,19.200703,,,,,,
28,,Bulevar Svetog Petra Cetinjskog I (A),,42.44239,19.250911,,,,,,
29,,Gornja Gorica III (A),,42.43541032,19.22089756,,,,,,
30,,Vezirov most (A),,42.450125,19.262089,,,,,,
32,,Most Braće Zlatičanin (A),,42.43739778,19.26152229,,,,,,
33,,Soliteri I (A),,42.450292,19.2594,,,,,,
34,,Ul. AVNOJ-a (A),,42.415638,19.248735,,,,,,
35,,Bracana Bracanovića (A),,42.429367,19.261711,,,,,,
36,,Ul. 4. jula III (A),,42.428294,19.259641,,,,,,
37,,Soliteri Zabjelo (A),,42.424378,19.252049,,,,,,
38,,Donja Gorica I (A),,42.426048,19.221552,,,,,,
39,,Tržni centar (A),,42.43146669,19.27915313,,,,,,
40,,Skopska II (A),,42.443284,19.278162,,,,,,
41,,Donja Gorica III (A),,42.420305,19.212832,,,,,,
42,,Medicinska škola (B),,42.43676,19.24973,,,,,,
43,,Orjenska III (B),,42.457267,19.293885,,,,,,
44,,Bulevar Ivana Crnojevića I (A),,42.44181787,19.26923499,,,,,,
45,,Dom zdravlja Pobrežje (A),,42.430544,19.259021,,,,,,
46,,Janka Đonovića I (A),,42.41825221,19.2438868,,,,,,
47,,Stanica prve pomoći (B),,42.445256,19.26164,,,,,,
48,,Ul. Miloša Gilića (B),,42.460358,19.294917,,,,,,
49,,Velika pijaca (A),,42.431725,19.261954,,,,,,
50,,Orjenska II (A),,42.454863,19.29114,,,,,,
51,,Blok 5 I (A),,42.445788,19.246236,,,,,,
52,,Stadion FK Kom (A),,42.464832,19.296204,,,,,,
53,,Splitske Zgrade (A),,42.43083338,19.27772284,,,,,,
54,,Kozaračka (A),,42.425069,19.273147,,,,,,
55,,Vezirov most (B),,42.450527,19.261993,,,,,,
56,,Dalmatinska I (A),,42.448201,19.245221,,,,,,
57,,Park Zlatica (A),,42.454449,19.285491,,,,,,
58,,Ul. Nikole Tesle I (B),,42.458349,19.269504,,,,,,
59,,Kralja Nikole (A),,42.425298,19.254723,,,,,,
60,,Pasarela (A),,42.461471,19.293245,,,,,,
61,,Donja Gorica IV (A),,42.41917572,19.20737386,,,,,,
62,,Gornja Gorica (A),,42.433607,19.224423,,,,,,
63,,Ul. Miloša Gilića (A),,42.46043,19.29489,,,,,,
64,,Dalmatinska I (B),,42.44854539,19.24444735,,,,,,
65,,Mareza (A),,42.471527,19.186738,,,,,,
66,,Ul. Nikole Tesle III (B),,42.460069,19.276886,,,,,,
67,,Ul. 13. jula (A),,42.446077,19.255482,,,,,,
72,,Savin most (B),,42.446848,19.284172,,,,,,
73,,Gradski stadion (A),,42.443615,19.263746,,,,,,
74,,PEP garaža (B),,42.42140652,19.25005924,,,,,,
75,,Mala pijaca (B),,42.445076,19.249287,,,,,,
76,,Mareza (B),,42.47143928,19.18661112,,,,,,
77,,Blok 5 (žuta zgrada) (A),,42.448762,19.243293,,,,,,
78,,Blok 5 - benz. pumpa (B),,42.447257,19.245724,,,,,,
79,,KBC (B),,42.438959,19.246174,,,,,,
80,,Ul. Braće Ribar I (B),,42.43810884,19.28670293,,,,,,
81,,Konik (B),,42.42496522,19.30148721,,,,,,
82,,Ul. Nikole Tesle II (B),,42.460329,19.273958,,,,,,
84,,Bulevar Ivana Crnojevića II (B),,42.44258586,19.26729709,,,,,,
85,,Dalmatinska II (B),,42.449136,19.243405,,,,,,
86,,Ul. Oktobarske revolucije II (B),,42.43518861,19.26175296,,,,,,
87,,Office centar (B),,42.435978,19.291824,,,,,,
88,,Nikšićki put I (A),,42.437244,19.226844,,,,,,
89,,Nikšićki put II (A),,42.439213,19.221637,,,,,,
90,,Park Zlatica (B),,42.45432,19.286028,,,,,,
94,,Boška Buhe II (A),,42.453219,19.230435,,,,,,
95,,Tološko groblje I (A),,42.45484276,19.21348393,,,,,,
96,,Zelenika (B),,42.412969,19.247389,,,,,,
97,,Dalmatinska III (B),,42.450583,19.241099,,,,,,
98,,Milana Raičkovića III (B),,42.454854,19.224167,,,,,,
99,,Elastik (A),,42.452472,19.219419,,,,,,
100,,Blok 6 (ispred Tološke šume) (A),,42.44677918,19.23780355,,,,,,
101,,Delta City I (B),,42.438187,19.235967,,,,,,
103,,OŠ Marko Miljanov (B),,42.43850234,19.28249381,,,,,,
105,,Kamionska pijaca (B),,42.42334,19.268941,,,,,,
106,,27. marta I (B),,42.426419,19.246381,,,,,,
107,,Goce Delčeva (B),,42.442347,19.281752,,,,,,
108,,Skopska I (B),,42.445683,19.281987,,,,,,
109,,Bivša kasarna Masline (B),,42.44195132,19.28468596,,,,,,
110,,Tološi II (A),,42.44989616,19.2275843,,,,,,
111,,Tološi I (B),,42.44812047,19.23288168,,,,,,
112,,Vrela ribnička (B),,42.43434813,19.2943961,,,,,,
113,,Mitra Bakića (A),,42.43203704,19.26711202,,,,,,
115,,Vojvode Ilije Plamenca I (A),,42.431946,19.243516,,,,,,
117,,Velika pijaca (B),,42.432722,19.262306,,,,,,
118,,Stadion FK Kom (B),,42.465006,19.296022,,,,,,
119,,Ul. 4. jula III (B),,42.428611,19.260022,,,,,,
120,,Bivša kasarna Masline (A),,42.441734,19.285242,,,,,,
121,,KBC (A),,42.438717,19.245366,,,,,,
122,,Zgrada Vektre (B),,42.4417,19.247621,,,,,,
123,,Nikšićki put II (B),,42.43961122,19.22004949,,,,,,
124,,Vatrogasna (A),,42.424433,19.267886,,,,,,
125,,Blok 5 I (B),,42.445767,19.246092,,,,,,
126,,Capital plaza II (A),,42.440302,19.240815,,,,,,
128,,Bracana Bracanovića (B),,42.428678,19.262371,,,,,,
129,,Pozorište (B),,42.441434,19.259703,,,,,,
130,,Bulevar Ivana Crnojevića I (B),,42.441612,19.27056,,,,,,
131,,Boška Buhe I (B),,42.455509,19.232607,,,,,,
132,,Ul. Oktobarske revolucije II (A),,42.43500253,19.26265419,,,,,,
133,,Španskih boraca I (A),,42.42637572,19.30042516,,,,,,
134,,Stadion Tološi (A),,42.45102225,19.22411176,,,,,,
135,,Elektrodistribucija (A),,42.440425,19.254219,,,,,,
136,,Delta City I (A),,42.43775,19.234309,,,,,,
137,,OŠ Marko Miljanov (A),,42.43856172,19.28224504,,,,,,
142,,Milana Raičkovića III (A),,42.454986,19.223632,,,,,,
143,,Donja Gorica - hotel (B),,42.418573,19.200574,,,,,,
144,,Milana Raičkovića II (B),,42.454406,19.225997,,,,,,
145,,Stadion Tološi (B),,42.45080081,19.22452393,,,,,,
147,,Capital plaza I (A),,42.440194,19.244021,,,,,,
148,,Meše Selimović (B),,42.447591,19.238652,,,,,,
149,,Blok 5 - zadnja zgrada (B),,42.450121,19.240503,,,,,,
150,,Blok 5 (žuta zgrada) (B),,42.44870769,19.24320817,,,,,,
151,,Orjenska IV (B),,42.458714,19.295809,,,,,,
154,,Cara Lazara I (B),,42.430299,19.277439,,,,,,
155,,Partizanski put III (A),,42.458007,19.199966,,,,,,
156,,Donja Gorica III (B),,42.419916,19.212595,,,,,,
157,,Kakaricka gora - vrt (A),,42.445188,19.304106,,,,,,
158,,Tološko groblje I (B),,42.454935,19.213855,,,,,,
159,,Španskih boraca II (A),,42.42968596,19.29797899,,,,,,
160,,Španskih boraca I (B),,42.42723982,19.2995299,,,,,,
161,,Bulevar Revolucije (B),,42.44046991,19.24863696,,,,,,
163,,Gornja Gorica (B),,42.434072,19.225613,,,,,,
166,,Donja Gorica I (B),,42.425491,19.221122,,,,,,
167,,Janka Đonovića I (B),,42.41833459,19.24394315,,,,,,
168,,Ul. AVNOJ-a (B),,42.4155877,19.24877644,,,,,,
169,,Manastirska II (B),,42.405481,19.241863,,,,,,
170,,Dalmatinska II (A),,42.449174,19.243485,,,,,,
171,,Milana Raičkovića (B),,42.453132,19.230237,,,,,,
172,,Office centar (A),,42.435948,19.292789,,,,,,
173,,Zgrada Vektre (A),,42.441781,19.247515,,,,,,
174,,Tološi I (A),,42.448606,19.231862,,,,,,
175,,Gornja Gorica II (A),,42.438262,19.218321,,,,,,
176,,Gornja Gorica II (B),,42.438159,19.218464,,,,,,
177,,Ul. Iva Andrića - škola (A),,42.45462231,19.2743862,,,,,,
180,,27. marta I (A),,42.425926,19.247664,,,,,,
181,,Boška Buhe I (A),,42.455259,19.232299,,,,,,
182,,Dom zdravlja Pobrežje (B),,42.430477,19.259059,,,,,,
183,,Milana Raičkovića I (B),,42.453884,19.228241,,,,,,
184,,Bulevar Revolucije (A),,42.44060451,19.24858868,,,,,,
185,,Donja Gorica II (B),,42.421942,19.215677,,,,,,
186,,V Proleterske brigade (B),,42.4373,19.269658,,,,,,
190,,Milana Raičkovića IV (A),,42.455314,19.219901,,,,,,
191,,Kralja Nikole (B),,42.426483,19.255466,,,,,,
192,,Spomenik (B),,42.448589,19.289277,,,,,,
193,,Tološko groblje (A),,42.454186,19.215793,,,,,,
194,,Mojkovačka (B),,42.437177,19.277092,,,,,,
195,,Tološi II (B),,42.449712,19.227995,,,,,,
196,,Ul. Nikole Tesle II (A),,42.460264,19.273375,,,,,,
197,,OŠ Pavle Rovinski (B),,42.42731652,19.2757273,,,,,,
198,,Cijevna (B),,42.399892,19.297837,,,,,,
199,,IX Crnogorske brigade (A),,42.454445,19.270839,,,,,,
200,,Most Braće Zlatičanin (B),,42.438499,19.261931,,,,,,
201,,Trg Golootočkih žrtava (B),,42.43257947,19.26826,,,,,,
202,,Ul. Oktobarske revolucije I (A),,42.43442053,19.2646873,,,,,,
203,,Konik (A),,42.42465834,19.3018949,,,,,,
204,,Vrela ribnička (A),,42.43476385,19.29425424,,,,,,
205,,Mojkovačka (A),,42.43718004,19.27763164,,,,,,
206,,Blok 5 - benz. pumpa (A),,42.447434,19.245639,,,,,,
207,,Elastik (B),,42.45217934,19.22005835,,,,,,
209,,Orjenska II (B),,42.45607,19.292459,,,,,,
213,,Vojvode Ilije Plamenca I (B),,42.430762,19.243959,,,,,,
214,,Goce Delčeva (A),,42.442362,19.282006,,,,,,
215,,Dalmatinska III (A),,42.450488,19.241362,,,,,,
216,,Bulevar Svetog Petra Cetinjskog I (B),,42.441624,19.252771,,,,,,
217,,Milana Raičkovića I (A),,42.453967,19.228084,,,,,,
218,,Partizanski put III (B),,42.457902,19.199985,,,,,,
220,,Španskih boraca II (B),,42.4292029,19.29808628,,,,,,
223,,Mala pijaca (A),,42.445825,19.24983,,,,,,
224,,Soliteri Zabjelo (B),,42.423937,19.251939,,,,,,
225,,Milana Raičkovića IV (B),,42.455275,19.220225,,,,,,
226,,Tološko groblje (B),,42.45404326,19.2159462,,,,,,
227,,Trg Božane Vučinić,,42.43649908,19.26256835,,,,,,
228,,Tržni centar (B),,42.43144076,19.27918063,,,,,,
229,,27. marta II (B),,42.42357135,19.25549805,,,,,,
230,,Cijevna (A),,42.398997,19.298512,,,,,,
234,,Milana Raičkovića II (A),,42.454336,19.226425,,,,,,
235,,Skopska II (B),,42.443457,19.278355,,,,,,
236,,Soliteri I (B),,42.449459,19.25888,,,,,,
237,,Ul. Oktobarske revolucije I (B),,42.43419723,19.26511157,,,,,,
238,,Blok 5 - zadnja zgrada (A),,42.450118,19.240775,,,,,,
239,,Ul. Braće Ribar I (A),,42.438466,19.286476,,,,,,
240,,Elektrodistribucija (B),,42.440319,19.254295,,,,,,
242,,Nikšićki put I (B),,42.436628,19.227035,,,,,,
243,,Ul. Nikole Tesle III (A),,42.460561,19.275598,,,,,,
244,,Pasarela (B),,42.461827,19.293246,,,,,,
246,,V Proleterske brigade (A),,42.437458,19.269349,,,,,,
247,,Mitra Bakića (B),,42.43211227,19.26695645,,,,,,
253,,Kamenica (A),,42.390125,19.116508,,,,,,
254,,Orjenska V (B),,42.46085455,19.29875672,,,,,,
256,,Limenka (A),,42.46385508,19.28435422,,,,,,
260,,Progonovići,,42.430511,19.069092,,,,,,
261,,Vojvođanska I,,42.43453774,19.21331232,,,,,,
262,,Orjenska V (A),,42.460692,19.298543,,,,,,
271,,Škola Dajbabe (A),,42.416437,19.223815,,,,,,
274,,Crveni krst (A),,42.442865,19.255803,,,,,,
275,,Franca Rozmana II (A),,42.450084,19.29344,,,,,,
280,,Burum (A),,42.451513,19.315368,,,,,,
281,,Mosorska - market II (B),,42.462489,19.301739,,,,,,
286,,Holandske sestre (A),,42.46274702,19.28026654,,,,,,
287,,Stara Zlatica (B),,42.472523,19.297266,,,,,,
291,,Ul. 4. jula I (A),,42.421168,19.255489,,,,,,
295,,Crveni krst (B),,42.443862,19.25611,,,,,,
299,,Dahna I (A),,42.425227,19.227102,,,,,,
300,,Radunovići I (A),,42.566419,19.345407,,,,,,
301,,Vranići I (A),,42.460425,19.236817,,,,,,
306,,Vranjske njive I (A),,42.469628,19.255658,,,,,,
307,,Doljanska III (A),,42.453141,19.311228,,,,,,
309,,Klopot (A),,42.558597,19.378327,,,,,,
310,,Doljanska I (A),,42.450938,19.299324,,,,,,
312,,Veruša (A),,42.654453,19.507606,,,,,,
313,,Primorska (B),,42.465517,19.289451,,,,,,
315,,Dječija bolnica (A),,42.43697887,19.24244529,,,,,,
316,,Donji Vranići (A),,42.45703858,19.23375878,,,,,,
318,,Partizanski put I (A),,42.454876,19.210364,,,,,,
320,,Kakaricka gora II (B),,42.440708,19.295049,,,,,,
321,,Gornji Medun (A),,42.476479,19.365041,,,,,,
322,,Dječija bolnica (B),,42.437488,19.242736,,,,,,
323,,Kakaricka gora I (B),,42.443058,19.297579,,,,,,
324,,Kovačica (B),,42.651174,19.483314,,,,,,
325,,Jablan (A),,42.620966,19.449799,,,,,,
326,,Doljanska I (B),,42.451739,19.301226,,,,,,
328,,Vojvođanska (B),,42.434168,19.211899,,,,,,
329,,Donji Kokoti II (B),,42.402253,19.198413,,,,,,
330,,Bioče - restoran (A),,42.539702,19.334353,,,,,,
331,,Andrije Lainovića (B),,42.453872,19.219223,,,,,,
332,,Podvožnjak Zagorič (B),,42.463663,19.286072,,,,,,
334,,Gornji Kokoti (B),,42.397799,19.167826,,,,,,
335,,Potkrš II (B),,42.544029,19.370463,,,,,,
338,,Studentska (A),,42.440231,19.236343,,,,,,
339,,Donji Kokoti (okretište),,42.39436,19.197317,,,,,,
340,,Uvač (B),,42.705419,19.516998,,,,,,
341,,Donji Vranići (B),,42.457223,19.233944,,,,,,
343,,Vlada Ćetkovića I (B),,42.450034,19.232904,,,,,,
344,,Đulje Jovanovića I (B),,42.448952,19.290561,,,,,,
345,,Bulevar Peka Dapčevića (B),,42.436329,19.275674,,,,,,
351,,Doljanska II (A),,42.452211,19.305111,,,,,,
352,,Donji Kokoti - teniski tereni (A),,42.410854,19.199216,,,,,,
355,,Limenka (B),,42.46395006,19.2838607,,,,,,
356,,Primorska (A),,42.46518474,19.28909052,,,,,,
357,,Martinićka (B),,42.46805765,19.2896055,,,,,,
364,,Donji Kokoti II (A),,42.402383,19.198407,,,,,,
366,,Vojvođanska - Dom zdravlja,,42.43500293,19.2212999,,,,,,
367,,Barutana (B),,42.395129,19.144693,,,,,,
368,,Farmaci (A),,42.415558,19.193938,,,,,,
369,,Bolje sestre (B),,42.591304,19.419883,,,,,,
370,,Orahovo II (A),,42.484731,19.442293,,,,,,
372,,Raskrsnica za Fundinu (A),,42.450588,19.340723,,,,,,
373,,Kruse,,42.43222313,19.1558218,,,,,,
375,,Miloja Pavlovića I (B),,42.442515,19.208917,,,,,,
376,,Andrije Lainovića (A),,42.453604,19.219077,,,,,,
377,,Bulevar Peka Dapčevića (A),,42.436246,19.275431,,,,,,
378,,Partizanski put I (B),,42.455381,19.207415,,,,,,
379,,Janka Đonovića II (A),,42.41736868,19.24414697,,,,,,
380,,Dušana Milutinovića (B),,42.41937389,19.24700748,,,,,,
382,,Ravni vjeternik - Duške (A),,42.619974,19.443188,,,,,,
383,,Pera Ćetkovića I (B),,42.432618,19.284215,,,,,,
384,,Mrke (A),,42.511222,19.336863,,,,,,
385,,Lješkopoljska I,,42.426612,19.221898,,,,,,
388,,Buronji,,42.42945548,19.10042882,,,,,,
389,,Pričelje (A),,42.504289,19.222681,,,,,,
390,,Pera Ćetkovića I (A),,42.432771,19.284194,,,,,,
391,,Studentska (B),,42.440263,19.236068,,,,,,
393,,Miloja Pavlovića I (A),,42.442575,19.208706,,,,,,
394,,Iveze Vukova (B),,42.44999574,19.29459935,,,,,,
395,,Holandske sestre (B),,42.4627391,19.28009976,,,,,,
396,,Dušana Milutinovića (A),,42.41915079,19.24692574,,,,,,
397,,Lješkopoljska III,,42.42794059,19.21558147,,,,,,
398,,Ubli I (A),,42.493172,19.388675,,,,,,
400,,Grbavci (okretište),,42.362549,19.189803,,,,,,
401,,Lijeva rijeka - škola (A),,42.645075,19.476684,,,,,,
404,,Orah (A),,42.583217,19.410009,,,,,,
405,,Doljanska III (B),,42.452992,19.310696,,,,,,
406,,Donji Medun (A),,42.467415,19.353018,,,,,,
407,,Beri (A),,42.428922,19.186111,,,,,,
408,,Proleterska (okretište),,42.422121,19.296285,,,,,,
410,,Trafostanica - Lješkopoljska,,42.43073044,19.21314061,,,,,,
411,,Bioče (A),,42.513346,19.343737,,,,,,
412,,Lekići (A),,42.39025,19.190182,,,,,,
415,,Španskih boraca III (A),,42.432279,19.296018,,,,,,
418,,Vezirov most I (A),,42.45188716,19.26236066,,,,,,
419,,Gornji Kokoti (A),,42.397017,19.166392,,,,,,
420,,Gornja Vrbica (A),,42.457764,19.352584,,,,,,
421,,Donja Vrbica (A),,42.447055,19.334075,,,,,,
424,,Berska II (A),,42.430683,19.203173,,,,,,
425,,Španskih boraca III (B),,42.43183277,19.29615503,,,,,,
426,,Groblje Zagorič (B),,42.46116799,19.27695621,,,,,,
427,,Podvožnjak Zagorič (A),,42.46355037,19.28656924,,,,,,
428,,Martinićka (A),,42.46821593,19.29009903,,,,,,
431,,Barutana (A),,42.395325,19.144272,,,,,,
432,,Farmaci - market (A),,42.408684,19.193685,,,,,,
434,,Lješkopoljska II,,42.42688102,19.21840321,,,,,,
436,,Kakaricka gora III (B),,42.440206,19.293796,,,,,,
437,,Pera Ćetkovića III (B),,42.434484,19.27826,,,,,,
438,,Ćukovica brijeg (A),,42.43692112,19.26580177,,,,,,
439,,Meše Selimović (A),,42.448802,19.239178,,,,,,
440,,Franca Rozmana (A),,42.4513059,19.29176694,,,,,,
441,,Nikšićki put III (B),,42.442943,19.211347,,,,,,
442,,KBC (C),,42.438503,19.24629,,,,,,
443,,Pelev brijeg (A),,42.580626,19.397369,,,,,,
444,,Farmaci (B),,42.415419,19.194906,,,,,,
446,,Vlada Ćetkovića II (A),,42.452766,19.234448,,,,,,
447,,Pera Ćetkovića III (A),,42.434499,19.27883,,,,,,
449,,Nikšićki put III (A),,42.442098,19.215898,,,,,,
450,,Groblje Zagorič (A),,42.46105876,19.27684331,,,,,,
452,,Kosor (A),,42.492621,19.379121,,,,,,
453,,Liješta-Roge (A),,42.484286,19.372769,,,,,,
454,,Donji Kokoti - teniski tereni (B),,42.410936,19.199113,,,,,,
456,,Vlada Ćetkovića I (A),,42.449064,19.232592,,,,,,
457,,Bulevar Svetog Petra Cetinjskog II (B),,42.442445,19.249951,,,,,,
458,,Franca Rozmana (B),,42.45131778,19.29150945,,,,,,
459,,Ćukovica brijeg (B),,42.43692527,19.26601413,,,,,,
463,,Lopate (A),,42.652999,19.485558,,,,,,
470,,Pribojevići,,42.400333,19.108222,,,,,,
471,,Staniseljići,,42.405222,19.102917,,,,,,
472,,Gradac,,42.413715,19.096113,,,,,,
473,,Rogami III (A),,42.471278,19.275025,,,,,,
475,,Plaža Rogami (A),,42.469376,19.25795,,,,,,
476,,Most Andrije Kažića (A),,42.456495,19.260756,,,,,,
479,,Vatrogasna (B),,42.424778,19.268972,,,,,,
480,,Bulevar Stanka Radonjića (A),,42.422068,19.261111,,,,,,
481,,Bulevar Stanka Radonjića (B),,42.422383,19.261103,,,,,,
482,,Uprava za nekretnine (A),,42.426513,19.263859,,,,,,
483,,Uprava za nekretnine (B),,42.425663,19.263071,,,,,,
484,,Bulevar Save Kovačevića (A),,42.430522,19.264918,,,,,,
485,,Bulevar Save Kovačevića (B),,42.430464,19.264562,,,,,,
486,,Zgrada Galenika (A),,42.43099,19.263393,,,,,,
487,,Zgrada Galenika (B),,42.43084,19.263355,,,,,,
488,,Bulevar Crnogorskih Serdara (A),,42.432209,19.257684,,,,,,
489,,Bulevar Crnogorskih Serdara (B),,42.432124,19.257423,,,,,,
490,,Ljubović (A),,42.433761,19.254239,,,,,,
491,,Ljubović (B),,42.433057,19.254937,,,,,,
492,,Stari duvanski kombinat (A),,42.439298,19.241688,,,,,,
493,,Ul. Marka Radovića (A),,42.437633,19.238172,,,,,,
494,,Ul. Marka Radovića (B),,42.437521,19.238067,,,,,,
496,,Pera Ćetkovića II (A),,42.433747,19.281209,,,,,,
497,,Pera Ćetkovića II (B),,42.433733,19.280729,,,,,,
498,,Gradsko pozorište (A),,42.441628,19.267368,,,,,,
499,,Gradsko pozorište (B),,42.441178,19.266953,,,,,,
500,,Blok 6 (okretište),,42.451907,19.237903,,,,,,
501,,Bulevar 21. maj (A),,42.416736,19.207708,,,,,,
502,,Bulevar 21. maj (B),,42.416252,19.206736,,,,,,
503,,UCG - Ekonomski fakultet (B),,42.446281,19.257557,,,,,,
504,,Most Andrije Kažića (B),,42.455559,19.261006,,,,,,
505,,Ul. 4. jula II (A),,42.423737,19.257064,,,,,,
506,,Ul. 4. jula II (B),,42.424686,19.257469,,,,,,
507,,Zgrada Šargarepa (A),,42.436441,19.264539,,,,,,
508,,Zgrada Šargarepa (B),,42.436517,19.264386,,,,,,
509,,Kružni tok Zlatica - autoput (B),,42.469101,19.299811,,,,,,
510,,Plaža Rogami (B),,42.469465,19.257958,,,,,,
511,,Rogami II (A),,42.470722,19.269194,,,,,,
512,,Stari duvanski kombinat (B),,42.43913,19.241764,,,,,,
513,,Husinjskih rudara I (A),,42.423072,19.297089,,,,,,
514,,Husinjskih rudara II (A),,42.425987,19.294926,,,,,,
515,,Reciklažno dvorište (A),,42.429382,19.292139,,,,,,
516,,Reciklažno dvorište (B),,42.429512,19.291,,,,,,
517,,Husinjskih rudara II (B),,42.425537,19.295183,,,,,,
518,,Husinjskih rudara I (B),,42.422821,19.297203,,,,,,
519,,Ul. 13. jula I (A),,42.447084,19.251977,,,,,,
520,,Ul. 13. jula I (B),,42.446883,19.252207,,,,,,
521,,Grbavci I (A),,42.36329,19.189279,,,,,,
523,,Grbavci III (A),,42.366302,19.188278,,,,,,
524,,Grbavci III (B),,42.36653,19.188442,,,,,,
525,,Grbavci - škola (A),,42.368438,19.1882,,,,,,
526,,Grbavci - škola (B),,42.368208,19.188149,,,,,,
527,,Grbavci IV (A),,42.369904,19.188067,,,,,,
528,,Grbavci IV (B),,42.370275,19.18792,,,,,,
529,,Grbavci V (A),,42.375449,19.18812,,,,,,
530,,Grbavci V (B),,42.375629,19.187958,,,,,,
531,,Lekići (B),,42.390081,19.190042,,,,,,
532,,Lekići I (A),,42.394312,19.188639,,,,,,
533,,Lekići I (B),,42.394079,19.188678,,,,,,
534,,Farmaci I (A),,42.401836,19.188672,,,,,,
535,,Farmaci I (B),,42.401634,19.188537,,,,,,
536,,Farmaci II (A),,42.404285,19.191183,,,,,,
537,,Farmaci II (B),,42.404178,19.190958,,,,,,
538,,Farmaci III (A),,42.405528,19.192117,,,,,,
539,,Farmaci III (B),,42.405767,19.192178,,,,,,
540,,Farmaci - market (B),,42.408566,19.193529,,,,,,
541,,Donji Kokoti I (B),,42.404393,19.199153,,,,,,
542,,Donji Kokoti I (A),,42.404223,19.199023,,,,,,
543,,Donji Kokoti III (B),,42.399989,19.197385,,,,,,
544,,Donji Kokoti III (A),,42.399891,19.197263,,,,,,
545,,Donji Kokoti - market (A),,42.398467,19.196857,,,,,,
546,,Donji Kokoti - market (B),,42.398266,19.196975,,,,,,
548,,Kamenica (B),,42.389755,19.11524,,,,,,
549,,Bulevar 21. maj - kružni tok (A),,42.414676,19.204638,,,,,,
550,,Bulevar 21. maj - kružni tok (B),,42.414171,19.203672,,,,,,
551,,Rogami - Duklja (A),,42.467081,19.265247,,,,,,
552,,Rogami - Duklja (B),,42.467061,19.266383,,,,,,
553,,Smokovac - benz. pumpa (A),,42.48447,19.3061,,,,,,
554,,Most Smokovac (A),,42.47921,19.306616,,,,,,
555,,Most Smokovac (B),,42.479488,19.306438,,,,,,
556,,Dajbabe (A),,42.400436,19.230959,,,,,,
557,,Kakaricka gora - Centar (A),,42.447468,19.315402,,,,,,
558,,Kuće Rakića III (A),,42.381629,19.274581,,,,,,
559,,Opasanica (A),,42.685142,19.524382,,,,,,
560,,Dajbabe (B),,42.400483,19.230666,,,,,,
564,,Škola Dajbabe (B),,42.416234,19.223702,,,,,,
565,,Dahna I (B),,42.425802,19.227095,,,,,,
566,,Dahna - park (A),,42.433133,19.227757,,,,,,
567,,Dahna - park (B),,42.433197,19.227999,,,,,,
568,,Dahna II (A),,42.432994,19.237401,,,,,,
569,,Dahna II (B),,42.433129,19.237845,,,,,,
570,,Kakaricka gora III (A),,42.439459,19.293835,,,,,,
571,,Kakaricka gora II (A),,42.440557,19.294837,,,,,,
572,,Kakaricka gora I (A),,42.443061,19.297744,,,,,,
573,,Ratnih veterana (A),,42.438997,19.291444,,,,,,
574,,Ratnih veterana (B),,42.438776,19.291636,,,,,,
575,,Franca Rozmana I (A),,42.452559,19.289193,,,,,,
578,,Plantaže 13. jul (A),,42.405049,19.291244,,,,,,
579,,Plantaže 13. jul (B),,42.405922,19.290536,,,,,,
580,,Tuški put - stočna pijaca (B),,42.409149,19.286459,,,,,,
581,,Tuški put - stočna pijaca (A),,42.409617,19.285759,,,,,,
582,,Nijagarini vodopadi (A),,42.386039,19.281323,,,,,,
583,,Nijagarini vodopadi (B),,42.386122,19.281546,,,,,,
584,,Kuće Rakića II (A),,42.388249,19.283597,,,,,,
585,,Kuće Rakića II (B),,42.387757,19.283868,,,,,,
589,,Zmaj Jovina II (A),,42.428142,19.272286,,,,,,
590,,Zmaj Jovina II (B),,42.427968,19.272586,,,,,,
598,,Mrke (B),,42.511635,19.337072,,,,,,
599,,Bioče (B),,42.513542,19.343689,,,,,,
600,,Potkrš I (A),,42.517845,19.349113,,,,,,
601,,Potkrš I (B),,42.518363,19.349861,,,,,,
602,,Potkrš II (A),,42.544332,19.370848,,,,,,
603,,Klopot (B),,42.558945,19.378259,,,,,,
604,,Pelev brijeg (B),,42.580921,19.397276,,,,,,
605,,Orah (B),,42.582807,19.410197,,,,,,
606,,Bolje sestre (A),,42.591071,19.420234,,,,,,
607,,Vjeternik (A),,42.606052,19.427369,,,,,,
608,,Vjeternik (B),,42.605999,19.426018,,,,,,
609,,Ravni vjeternik - Duške (B),,42.620165,19.443168,,,,,,
610,,Jablan (B),,42.621175,19.450318,,,,,,
611,,Lijeva rijeka - škola (B),,42.644786,19.476353,,,,,,
612,,Kovačica (A),,42.651301,19.483421,,,,,,
613,,Lopate (B),,42.653031,19.485308,,,,,,
614,,Veruša (B),,42.654681,19.507673,,,,,,
615,,Opasanica (B),,42.685488,19.524012,,,,,,
616,,Uvač (A),,42.705714,19.516555,,,,,,
617,,Brežine,,42.395479,19.116604,,,,,,
618,,Burum (B),,42.451676,19.315288,,,,,,
619,,Kakaricka gora - Centar (B),,42.447109,19.315261,,,,,,
620,,Donja Vrbica (B),,42.446845,19.334046,,,,,,
621,,Raskrsnica za Fundinu (B),,42.450854,19.340758,,,,,,
622,,Gornja Vrbica (B),,42.457615,19.352635,,,,,,
623,,Donji Medun (B),,42.467611,19.353263,,,,,,
624,,Gornji Medun (B),,42.476425,19.364611,,,,,,
625,,Liješta-Roge (B),,42.484617,19.372831,,,,,,
626,,Kosor (B),,42.492539,19.378902,,,,,,
627,,Ubli I (B),,42.493117,19.389032,,,,,,
628,,Ubli II (A),,42.491571,19.392624,,,,,,
629,,Ubli II (B),,42.491526,19.392965,,,,,,
630,,Orahovo I (A),,42.487122,19.423599,,,,,,
631,,Orahovo I (B),,42.487141,19.424099,,,,,,
632,,Orahovo II (B),,42.485094,19.442126,,,,,,
633,,Dalmatinska - market (A),,42.456323,19.235566,,,,,,
634,,Dalmatinska - market (B),,42.456546,19.235287,,,,,,
635,,Vranići I (B),,42.460208,19.236466,,,,,,
636,,Vranići II (A),,42.467748,19.243268,,,,,,
639,,Pričelje (B),,42.504488,19.222282,,,,,,
642,,Dom starih (A),,42.422018,19.279269,,,,,,
645,,Dajbabe - bunar II (A),,42.405457,19.227068,,,,,,
646,,Dajbabe - bunar II (B),,42.405595,19.226632,,,,,,
647,,Dajbabe II (A),,42.408938,19.223339,,,,,,
648,,Dajbabe II (B),,42.409243,19.223168,,,,,,
649,,Kružni tok Zlatica - autoput (A),,42.468716,19.299605,,,,,,
650,,Plaža Rogami I (A),,42.469757,19.257745,,,,,,
651,,Plaža Rogami I (B),,42.469785,19.257627,,,,,,
652,,Cara Lazara I (A),,42.430238,19.277331,,,,,,
658,,Stara Zlatica (A),,42.472323,19.296537,,,,,,
660,,Bulevar Miloša Rašovića (A),,42.422772,19.257889,,,,,,
661,,Bulevar Miloša Rašovića (B),,42.422938,19.257951,,,,,,
662,,Studentska I (A),,42.441817,19.235174,,,,,,
663,,Studentska I (B),,42.441854,19.234975,,,,,,
664,,Gimnazija (A),,42.446691,19.262408,,,,,,
666,,Ul. Nikole Tesle IV (A),,42.458124,19.279834,,,,,,
667,,Ul. Nikole Tesle IV (B),,42.458912,19.278897,,,,,,
668,,Ul. Nikole Tesle V (A),,42.455907,19.282895,,,,,,
669,,Ul. Nikole Tesle V (B),,42.456437,19.282273,,,,,,
670,,Kružni tok Zlatica - put za Smokovac (A),,42.470621,19.301306,,,,,,
671,,Kružni tok Zlatica - put za Smokovac (B),,42.470492,19.301032,,,,,,
672,,Donja Gorica - obala Morače,,42.427144,19.223312,,,,,,
673,,UCG - Ekonomski fakultet (A),,42.445925,19.257581,,,,,,
674,,Plaža Rogami - most,,42.468384,19.256998,,,,,,
675,,Rogami II (B),,42.470929,19.269607,,,,,,
676,,Rogami III (B),,42.471323,19.274835,,,,,,
677,,Rogami - igralište (A),,42.471963,19.278822,,,,,,
678,,Rogami - igralište (B),,42.472065,19.278946,,,,,,
679,,Dom starih (B),,42.422037,19.278961,,,,,,
680,,Bulevar Veljka Vlahovića (A),,42.422526,19.277679,,,,,,
681,,Bulevar Veljka Vlahovića (B),,42.422542,19.277337,,,,,,
684,,Bulevar Ibrahima Dreševića (A),,42.428635,19.265106,,,,,,
685,,Bulevar Ibrahima Dreševića (B),,42.428834,19.265007,,,,,,
686,,Dom zdravlja - Blok V (A),,42.444616,19.243074,,,,,,
687,,Dom zdravlja - Blok V (B),,42.444264,19.243628,,,,,,
688,,Blok 6 (ispred Tološke šume) (B),,42.446285,19.238681,,,,,,
689,,Blok 6 - kružni tok (A),,42.450682,19.240293,,,,,,
690,,Blok 6 - kružni tok (B),,42.450843,19.240287,,,,,,
691,,Nova Dalmatinska I (A),,42.452047,19.239257,,,,,,
692,,Nova Dalmatinska I (B),,42.451983,19.239222,,,,,,
693,,Nova Dalmatinska II (A),,42.454025,19.236653,,,,,,
694,,Nova Dalmatinska II (B),,42.453833,19.236776,,,,,,
695,,Vlada Ćetkovića II (B),,42.451654,19.233952,,,,,,
696,,Partizanski put II (A),,42.455845,19.204771,,,,,,
697,,Partizanski put II (B),,42.455711,19.204959,,,,,,
698,,Partizanski put IV (A),,42.460818,19.193286,,,,,,
699,,Partizanski put IV (B),,42.460675,19.193459,,,,,,
700,,Mareza I (A),,42.466545,19.189727,,,,,,
701,,Mareza I (B),,42.466759,19.189536,,,,,,
702,,Kralja Nikole I (A),,42.430104,19.257263,,,,,,
703,,Kralja Nikole I (B),,42.430343,19.257527,,,,,,
704,,OŠ Vuk Karadžić (A),,42.424318,19.253345,,,,,,
705,,OŠ Vuk Karadžić (B),,42.424307,19.253022,,,,,,
706,,27. marta - dječje igralište (A),,42.424823,19.251663,,,,,,
707,,27. marta - Vektra (A),,42.425505,19.249399,,,,,,
708,,Dahna - most (A),,42.433244,19.230538,,,,,,
709,,Dahna - most (B),,42.433215,19.230176,,,,,,
710,,Dahna - obala Morače (A),,42.430108,19.224929,,,,,,
711,,Dahna - obala Morače (B),,42.429872,19.225141,,,,,,
712,,Dahna - svečana sala (A),,42.421414,19.225407,,,,,,
713,,Dahna - svečana sala (B),,42.421518,19.225513,,,,,,
714,,Dajbabe - market (A),,42.413828,19.223604,,,,,,
715,,Dajbabe - market (B),,42.413667,19.223733,,,,,,
716,,Dajbabe - perionica (A),,42.410632,19.223114,,,,,,
717,,Dajbabe - perionica (B),,42.410426,19.223175,,,,,,
718,,Dajbabe - autobusi (A),,42.406573,19.225551,,,,,,
719,,Dajbabe - autobusi (B),,42.406726,19.225488,,,,,,
720,,Dajbabe - Luča (A),,42.402863,19.226258,,,,,,
721,,Dajbabe - Luča (B),,42.402631,19.226257,,,,,,
722,,Ul. Steva Boljevića (A),,42.417993,19.245601,,,,,,
723,,Ul. Steva Boljevića (B),,42.418075,19.245495,,,,,,
724,,IX Crnogorske brigade I (A),,42.455503,19.268316,,,,,,
725,,Ul. Iva Andrića I (A),,42.456493,19.277975,,,,,,
726,,Ul. Iva Andrića II (A),,42.457759,19.279976,,,,,,
727,,Primorska I (A),,42.467186,19.290583,,,,,,
728,,Primorska I (B),,42.467076,19.290483,,,,,,
729,,Ul. Miladina Šega Vujoševića (A),,42.468682,19.291334,,,,,,
730,,Ul. Miladina Šega Vujoševića (B),,42.468754,19.291544,,,,,,
731,,Ul. Mihaila Ivanovića (A),,42.471205,19.292402,,,,,,
732,,Ul. Mihaila Ivanovića (B),,42.471373,19.292555,,,,,,
733,,Stara Zlatica I (A),,42.471237,19.300372,,,,,,
734,,Stara Zlatica I (B),,42.471319,19.300516,,,,,,
735,,Manastirska I (B),,42.400822,19.234389,,,,,,
736,,Manastirska I (A),,42.400904,19.234561,,,,,,
737,,Manastirska III (B),,42.407258,19.243237,,,,,,
738,,Manastirska III (A),,42.407134,19.243072,,,,,,
739,,Manastirska IV (B),,42.409213,19.244585,,,,,,
740,,Manastirska IV (A),,42.409124,19.244469,,,,,,
741,,Ul. AVNOJ-a I (A),,42.418178,19.248904,,,,,,
742,,Ul. AVNOJ-a I (B),,42.418236,19.248991,,,,,,
743,,Đulje Jovanovića I (A),,42.449628,19.292854,,,,,,
744,,Bivša kasarna Masline I (B),,42.441386,19.288576,,,,,,
745,,Bivša kasarna Masline I (A),,42.441473,19.288398,,,,,,
746,,Tenkovska kapija (A),,42.440549,19.291547,,,,,,
747,,Tenkovska kapija (B),,42.440423,19.291501,,,,,,
748,,Kakaricka gora - market (A),,42.441622,19.296535,,,,,,
749,,Kakaricka gora - market (B),,42.441412,19.296302,,,,,,
750,,Kakaricka gora (A),,42.445687,19.301082,,,,,,
751,,Kakaricka gora (B),,42.445152,19.300325,,,,,,
752,,Kakaricka gora - vrt (B),,42.445271,19.304352,,,,,,
753,,Franca Rozmana - pekara (A),,42.452343,19.28986,,,,,,
754,,Mosorska - market I (A),,42.461752,19.300272,,,,,,
755,,Mosorska - market I (B),,42.461852,19.300394,,,,,,
757,,Tuški put - pumpa (A),,42.418382,19.275013,,,,,,
758,,Tuški put - pumpa (B),,42.417244,19.276612,,,,,,
759,,Kuće Rakića - Cijevna (A),,42.396946,19.297603,,,,,,
760,,Kuće Rakića - Cijevna (B),,42.397071,19.298282,,,,,,
761,,Kuće Rakića (A),,42.394803,19.295201,,,,,,
762,,Kuće Rakića (B),,42.394481,19.293863,,,,,,
763,,Kuće Rakića III (B),,42.381506,19.274308,,,,,,
764,,Masline - muzička škola (A),,42.444675,19.278516,,,,,,
765,,Masline - muzička škola (B),,42.444907,19.278379,,,,,,
766,,Zlatica - SAJ (A),,42.455878,19.288412,,,,,,
767,,Zlatica - SAJ (B),,42.456077,19.288172,,,,,,
768,,Smokovac - benz. pumpa (B),,42.484149,19.305297,,,,,,
769,,Mrke I (A),,42.503763,19.326806,,,,,,
770,,Mrke I (B),,42.504693,19.324952,,,,,,
771,,Jelin dub (A),,42.527956,19.356078,,,,,,
772,,Jelin dub (B),,42.528249,19.356239,,,,,,
773,,Nožice (A),,42.625679,19.455196,,,,,,
774,,Nožice (B),,42.625918,19.455372,,,,,,
775,,Kami (A),,42.639675,19.476517,,,,,,
776,,Kami (B),,42.639789,19.476472,,,,,,
777,,Veruša - pilana (A),,42.666795,19.516004,,,,,,
778,,Veruša - pilana (B),,42.667047,19.516196,,,,,,
779,,Raskrsnica za Dinošu (A),,42.441969,19.321457,,,,,,
780,,Raskrsnica za Dinošu (B),,42.442102,19.321149,,,,,,
781,,Orjevo (A),,42.463698,19.347751,,,,,,
782,,Orjevo (B),,42.463394,19.347744,,,,,,
783,,Donji Medun I (A),,42.469122,19.356673,,,,,,
784,,Donji Medun I (B),,42.468868,19.355948,,,,,,
785,,Medun - muzej (A),,42.472686,19.361711,,,,,,
786,,Medun - muzej (B),,42.473467,19.361954,,,,,,
787,,Ubli III (A),,42.487389,19.394796,,,,,,
788,,Ubli III (B),,42.487185,19.395257,,,,,,
789,,Raskrsnica za Koče (A),,42.483308,19.401947,,,,,,
790,,Raskrsnica za Koče (B),,42.483431,19.402039,,,,,,
791,,Vojvođanska (A),,42.433739,19.212064,,,,,,
792,,Berska I (A),,42.432549,19.208648,,,,,,
793,,Berska I (B),,42.432559,19.208934,,,,,,
794,,Berska II (B),,42.430544,19.203045,,,,,,
795,,Vojvođanska II,,42.435014,19.218503,,,,,,
796,,Miloja Pavlovića (B),,42.441494,19.212113,,,,,,
797,,Bioče I (A),,42.517825,19.343088,,,,,,
798,,Bioče I (B),,42.518115,19.342814,,,,,,
799,,Bioče - most Moračica (A),,42.525192,19.345876,,,,,,
800,,Bioče - most Moračica (B),,42.525568,19.345793,,,,,,
801,,Bioče II (A),,42.535395,19.33646,,,,,,
802,,Bioče II (B),,42.535643,19.335914,,,,,,
803,,Milunovići I (A),,42.550736,19.335405,,,,,,
804,,Bioče - restoran (B),,42.540661,19.334395,,,,,,
805,,Milunovići I (B),,42.550325,19.335015,,,,,,
806,,Milunovići II (A),,42.556856,19.337596,,,,,,
807,,Milunovići II (B),,42.556352,19.336311,,,,,,
808,,Radunovići I (B),,42.566624,19.345413,,,,,,
809,,Dalmatinska - pekara (A),,42.451938,19.239399,,,,,,
810,,Dalmatinska - pekara (B),,42.451788,19.239486,,,,,,
811,,Dalmatinska IV (A),,42.453767,19.236979,,,,,,
812,,Dalmatinska IV (B),,42.453952,19.236632,,,,,,
813,,Dalmatinska V (B),,42.455257,19.236669,,,,,,
814,,Miloja Pavlovića (A),,42.441322,19.212609,,,,,,
815,,Vladike Ruvima II Boljevića II (A),,42.421969,19.197889,,,,,,
817,,Raskrsnica za Beri (A),,42.424777,19.189547,,,,,,
818,,Raskrsnica za Beri (B),,42.424799,19.189292,,,,,,
819,,Donja Gorica - univerzitet (B),,42.417142,19.202892,,,,,,
820,,Deponija (A),,42.420366,19.307398,,,,,,
821,,Deponija (B),,42.420237,19.307518,,,,,,
822,,Donja Gorica - univerzitet (A),,42.417013,19.203188,,,,,,
823,,Beri (B),,42.429183,19.185958,,,,,,
824,,Beri I (A),,42.431314,19.185059,,,,,,
825,,Beri I (B),,42.431515,19.185015,,,,,,
826,,Beri II (A),,42.433447,19.184819,,,,,,
827,,Beri II (B),,42.433742,19.184725,,,,,,
828,,Beri III (A),,42.434887,19.185233,,,,,,
829,,Beri III (B),,42.435139,19.185085,,,,,,
830,,Beri groblje (A),,42.436821,19.181741,,,,,,
831,,Beri groblje (B),,42.436502,19.181861,,,,,,
832,,Donji Kokoti - teniski tereni I (A),,42.410999,19.198933,,,,,,
833,,Donji Kokoti - teniski tereni I (B),,42.410847,19.198833,,,,,,
834,,Grbavci I (B),,42.363582,19.188713,,,,,,
835,,Pričelje I (A),,42.472014,19.257434,,,,,,
836,,Pričelje II (A),,42.474506,19.254419,,,,,,
837,,Pričelje - restoran (A),,42.489761,19.230821,,,,,,
838,,Pričelje III (A),,42.493587,19.227852,,,,,,
839,,Pričelje III (B),,42.493895,19.227553,,,,,,
840,,Pričelje - restoran (B),,42.489945,19.230534,,,,,,
841,,Pričelje II (B),,42.474609,19.254167,,,,,,
842,,Pričelje I (B),,42.472112,19.257234,,,,,,
844,,Progonovići okretište,,42.4321684,19.0638559,,,,,,
846,,Granica Progonovići,,42.42409218,19.0812195,,,,,,
851,,Draževina III,,42.4289808,19.1228588,,,,,,
852,,Draževina kod spomenika,,42.4303308,19.1347973,,,,,,
853,,Draževina I,,42.4312219,19.1445485,,,,,,
856,,Beri V (A),,42.4303991,19.1821839,,,,,,
860,,Beri VI (B),,42.4321974,19.1759934,,,,,,
863,,Botun I (B),,42.381347,19.191903,,,,,,
864,,Botun II (B),,42.38556,19.201353,,,,,,
865,,Botun III (B),,42.387999,19.208374,,,,,,
866,,Botun IV (B),,42.389612,19.212867,,,,,,
867,,Botun I (A),,42.381486,19.191985,,,,,,
868,,Botun II (A),,42.385697,19.201519,,,,,,
869,,Botun III (A),,42.388196,19.208551,,,,,,
870,,Botun IV (A),,42.389743,19.212913,,,,,,
871,,Mosorska III (B),,42.463001,19.308799,,,,,,
873,,Mosorska IV (B),,42.460491,19.309516,,,,,,
875,,Manastir Morača (A),,42.763506,19.388915,,,,,,
876,,Manastir Morača (B),,42.763585,19.388944,,,,,,
877,,Vranjske Njive II (А),,42.47279,19.252075,,,,,,
878,,Vranjske Njive II (B),,42.468791,19.256396,,,,,,
879,,Velje Brdo I (A),,42.480083,19.242077,,,,,,
880,,Velje Brdo II (A),,42.489865,19.220753,,,,,,
881,,Velje Brdo I (B),,42.480082,19.241999,,,,,,
882,,Velje Brdo II (B),,42.489783,19.2207,,,,,,
883,,Istražni zatvor (A),,42.492253,19.214882,,,,,,
884,,Istražni zatvor (B),,42.492191,19.214845,,,,,,
885,,Boška Buhe II (B),,42.453215,19.230516,,,,,,
886,,Daljam (A),,42.49215,19.17001,,,,,,
887,,Daljam I (A),,42.48723,19.17488,,,,,,
888,,Daljam II (A),,42.48519,19.17853,,,,,,
889,,Daljam III (A),,42.48409,19.17858,,,,,,
890,,Daljam IV(A),,42.47398,19.17967,,,,,,
891,,Daljam IV(B),,42.473832,19.179851,,,,,,
892,,Daljam III (B),,42.484109,19.178619,,,,,,
893,,Daljam II (B),,42.485059,19.178532,,,,,,
894,,Daljam I (B),,42.487103,19.174866,,,,,,
895,,Daljam (B),,42.4921,19.17007,,,,,,
896,,Šteke/Kornet (A),,42.41265707,19.17817581,,,,,,
897,,Šteke/Kornet (B),,42.41194416,19.1766094,,,,,,
898,,Staniseljići I,,42.4010095,19.1043348,,,,,,
899,,Barutana I,,42.3962179,19.1574402,,,,,,
900,,Saniteko (A),,42.39154472,19.12814911,,,,,,
901,,Karting centar (A),,42.3930878,19.13568508,,,,,,
902,,Sveta Gospođa,,42.43121245,19.12916498,,,,,,
903,,Buronji I,,42.43023595,19.1130929,,,,,,
904,,Buronji II,,42.429678,19.1041688,,,,,,
905,,Buronji III,,42.42789773,19.0978834,,,,,,
906,,Saniteko (B),,42.3914106,19.12816368,,,,,,
907,,Karting centar (B),,42.39308363,19.13574468,,,,,,
908,,Jamica,,42.43065427,19.06906325,,,,,,
909,,Bul. Veljka Vlahovića I (A),,42.42032,19.2763,,,,,,
910,,Bul. Veljka Vlahovića II (A),,42.426498,19.279629,,,,,,
911,,Bul. Veljka Vlahovića II (B),,42.426834,19.279427,,,,,,
912,,Bul. Veljka Vlahovića III (B),,42.420566,19.275844,,,,,,
